City_ID,City,Lat,Lng,Max Temp,Humidity,Cloudiness,Wind Speed,Country,Date
0,port-aux-francais,-49.35,70.2167,4.15,95,95,14.28,TF,2023-12-08
1,jamestown,42.097,-79.2353,3.77,92,75,1.54,US,2023-12-08
2,oulmes,33.4258,-6.0014,10.56,91,100,2.07,MA,2023-12-08
3,pionerskiy,54.9508,20.2275,-3.09,85,94,7.16,RU,2023-12-08
4,el calafate,-50.3408,-72.2768,16.65,51,56,3.52,AR,2023-12-08
5,waitangi,-43.9535,-176.5597,14.34,69,51,7.99,NZ,2023-12-08
6,westport,41.1415,-73.3579,3.21,82,100,2.57,US,2023-12-08
7,nadym,65.5333,72.5167,-19.88,97,100,6.74,RU,2023-12-08
8,obigarm,38.7173,69.7088,6.43,38,100,1.41,TJ,2023-12-08
9,copala,16.65,-98.9833,26.4,77,75,2.15,MX,2023-12-08
10,stanley,54.868,-1.6985,4.6,96,100,4.12,GB,2023-12-08
11,pombas,17.1503,-25.0201,22.88,74,3,5.86,CV,2023-12-08
12,adamstown,-25.066,-130.1015,22.99,78,68,5.27,PN,2023-12-08
13,grytviken,-54.2811,-36.5092,-1.17,92,49,4.44,GS,2023-12-08
14,lebu,-37.6167,-73.65,12.61,86,0,6.78,CL,2023-12-08
15,ribeira grande,38.5167,-28.7,19.32,96,100,9.83,PT,2023-12-08
16,coquimbo,-29.9533,-71.3436,15.77,84,12,1.98,CL,2023-12-08
17,yeppoon,-23.1333,150.7333,27.88,61,38,8.16,AU,2023-12-08
18,bethel,41.3712,-73.414,1.97,83,75,2.57,US,2023-12-08
19,ushuaia,-54.8,-68.3,8.81,68,0,8.75,AR,2023-12-08
20,uturoa,-16.7333,-151.4333,27.38,77,38,5.06,PF,2023-12-08
21,hermanus,-34.4187,19.2345,19.31,73,44,3.42,ZA,2023-12-08
22,margaret river,-33.95,115.0667,16.76,58,32,5.39,AU,2023-12-08
23,ingeniero jacobacci,-41.3427,-69.5448,23.22,21,22,1.55,AR,2023-12-08
24,kindu,-2.95,25.95,21.35,99,93,0.74,CD,2023-12-08
25,konde,-4.95,39.75,26.0,86,76,2.66,TZ,2023-12-08
26,edinburgh of the seven seas,-37.0676,-12.3116,14.92,84,99,6.89,SH,2023-12-08
27,wailua homesteads,22.0669,-159.378,26.74,71,0,4.12,US,2023-12-08
28,georgetown,5.4112,100.3354,26.08,92,20,1.54,MY,2023-12-08
29,hithadhoo,-0.6,73.0833,27.6,76,99,6.06,MV,2023-12-08
30,saipan,15.1355,145.701,28.39,83,40,4.12,MP,2023-12-08
31,invercargill,-46.4,168.35,17.07,53,91,3.79,NZ,2023-12-08
32,hamilton,39.1834,-84.5333,10.56,64,0,3.6,US,2023-12-08
33,menongue,-14.6585,17.691,17.38,94,81,0.71,AO,2023-12-08
34,preobrazheniye,42.9019,133.9064,-2.49,37,18,0.62,RU,2023-12-08
35,viota,4.4371,-74.5216,23.32,83,33,2.17,CO,2023-12-08
36,tughyl,47.7252,84.2063,-7.95,77,100,2.57,KZ,2023-12-08
37,thompson,55.7435,-97.8558,-7.91,100,75,1.54,CA,2023-12-08
38,afaahiti,-17.75,-149.2833,23.93,84,100,9.67,PF,2023-12-08
39,kalach-na-donu,48.691,43.5264,-4.33,84,80,6.92,RU,2023-12-08
40,puerto natales,-51.7236,-72.4875,12.5,75,63,2.35,CL,2023-12-08
41,yichang,30.7144,111.2847,12.49,57,100,1.61,CN,2023-12-08
42,geraldton,-28.7667,114.6,22.23,53,13,8.23,AU,2023-12-08
43,liptovsky hradok,49.0396,19.7234,-3.65,99,81,1.28,SK,2023-12-08
44,de aar,-30.6497,24.0123,20.42,53,48,4.18,ZA,2023-12-08
45,jayapura,-2.5333,140.7,29.66,77,100,2.79,ID,2023-12-08
46,prince rupert,54.3161,-130.3201,4.83,83,100,4.12,CA,2023-12-08
47,atafu village,-8.5421,-172.5159,29.36,71,61,2.19,TK,2023-12-08
48,ilulissat,69.2167,-51.1,-3.99,68,100,0.0,GL,2023-12-08
49,asubulaq,49.5583,83.0558,-23.14,99,73,1.49,KZ,2023-12-08
50,llallagua,-18.4167,-66.6333,11.17,60,90,6.79,BO,2023-12-08
51,nemuro,43.3236,145.575,1.45,57,60,12.46,JP,2023-12-08
52,rock springs,41.5875,-109.2029,-0.31,67,0,10.29,US,2023-12-08
53,selfoss,63.9331,-20.9971,-4.26,62,88,5.38,IS,2023-12-08
54,badger,64.8,-147.5333,-18.69,71,75,1.54,US,2023-12-08
55,whitehorse,60.7161,-135.0538,-3.88,85,75,6.17,CA,2023-12-08
56,yellowknife,62.456,-114.3525,-10.71,92,100,2.57,CA,2023-12-08
57,changji,44.0167,87.3167,-1.56,74,0,1.0,CN,2023-12-08
58,mikhaylovskaya,44.9947,40.5964,5.23,96,100,6.61,RU,2023-12-08
59,lompoc,34.6391,-120.4579,17.23,67,0,11.83,US,2023-12-08
60,caxito,-8.5785,13.6643,25.81,85,80,0.52,AO,2023-12-08
61,bredasdorp,-34.5322,20.0403,17.94,81,0,3.67,ZA,2023-12-08
62,college,64.8569,-147.8028,-18.64,71,75,1.54,US,2023-12-08
63,fortuna,40.5982,-124.1573,11.07,92,75,4.12,US,2023-12-08
64,vilyuchinsk,52.9306,158.4028,-5.85,82,100,1.27,RU,2023-12-08
65,san patricio,28.017,-97.5169,22.13,74,100,5.8,US,2023-12-08
66,port elizabeth,-33.918,25.5701,18.16,94,0,7.72,ZA,2023-12-08
67,port lincoln,-34.7333,135.8667,22.62,56,96,4.62,AU,2023-12-08
68,papatowai,-46.5619,169.4708,15.69,57,95,3.84,NZ,2023-12-08
69,iqaluit,63.7506,-68.5145,-11.15,79,75,4.63,CA,2023-12-08
70,blackmans bay,-43.0167,147.3167,21.07,56,99,0.45,AU,2023-12-08
71,maryborough,-25.5333,152.7,28.39,47,9,4.58,AU,2023-12-08
72,ambon,-3.6954,128.1814,31.08,100,40,3.09,ID,2023-12-08
73,enewetak,11.3474,162.3373,27.77,78,89,9.03,MH,2023-12-08
74,tura,25.5198,90.2201,15.88,97,100,1.71,IN,2023-12-08
75,olonkinbyen,70.9221,-8.7187,-2.58,76,42,6.21,SJ,2023-12-08
76,zaozersk,69.4005,32.4476,-16.52,95,76,4.19,RU,2023-12-08
77,touros,-5.1989,-35.4608,26.71,76,66,6.1,BR,2023-12-08
78,al burayqah,30.4062,19.5739,18.96,69,47,8.98,LY,2023-12-08
79,port mathurin,-19.6833,63.4167,25.85,76,8,3.47,MU,2023-12-08
80,usogorsk,63.4106,48.6872,-29.63,99,15,0.44,RU,2023-12-08
81,puerto ayora,-0.7393,-90.3518,24.19,96,79,2.24,EC,2023-12-08
82,tetbury,51.6394,-2.1622,8.51,93,100,3.85,GB,2023-12-08
83,selah,46.654,-120.5301,8.2,59,0,7.72,US,2023-12-08
84,lihue,21.9789,-159.3672,26.77,70,0,4.12,US,2023-12-08
85,kapuskasing,49.4169,-82.4331,-0.95,93,100,2.57,CA,2023-12-08
86,cannonvale,-20.2833,148.7,27.66,57,95,8.05,AU,2023-12-08
87,chui,-33.6971,-53.4616,15.93,80,30,5.31,UY,2023-12-08
88,lalmohan,22.3384,90.7419,20.84,93,91,3.1,BD,2023-12-08
89,dunedin,-45.8742,170.5036,17.45,53,66,1.64,NZ,2023-12-08
90,smithers,54.7804,-127.1743,-4.82,93,100,2.57,CA,2023-12-08
91,aasiaat,68.7098,-52.8699,-11.94,87,100,1.39,GL,2023-12-08
92,harper,4.375,-7.7169,26.62,81,29,3.79,LR,2023-12-08
93,bilibino,68.0546,166.4372,-37.12,100,71,1.0,RU,2023-12-08
94,dazhong,33.1997,120.4578,11.35,54,0,4.29,CN,2023-12-08
95,malango,-2.9627,119.9001,21.41,95,100,0.91,ID,2023-12-08
96,kingston,17.997,-76.7936,29.53,73,20,1.79,JM,2023-12-08
97,luderitz,-26.6481,15.1594,16.14,80,0,5.73,NA,2023-12-08
98,punta arenas,-53.15,-70.9167,10.06,71,0,3.6,CL,2023-12-08
99,hawaiian paradise park,19.5933,-154.9731,27.15,73,40,5.66,US,2023-12-08
100,port alfred,-33.5906,26.891,20.75,93,30,2.22,ZA,2023-12-08
101,digras,20.1167,77.7167,18.46,92,41,2.19,IN,2023-12-08
102,jackson,42.4165,-122.8345,7.53,89,100,2.06,US,2023-12-08
103,sabanozu,40.4825,33.2835,4.42,88,100,1.51,TR,2023-12-08
104,vila franca do campo,37.7167,-25.4333,19.23,99,99,4.98,PT,2023-12-08
105,mata-utu,-13.2816,-176.1745,28.35,79,77,5.87,WF,2023-12-08
106,petropavlovsk-kamchatsky,53.0452,158.6483,-6.67,72,40,2.24,RU,2023-12-08
107,vorgashor,67.5833,63.95,-25.66,98,100,1.82,RU,2023-12-08
108,tiksi,71.6872,128.8694,-33.73,100,87,2.13,RU,2023-12-08
109,constantia,44.1833,28.65,0.39,94,100,6.61,RO,2023-12-08
110,klyuchi,52.2667,79.1667,-22.11,71,82,3.77,RU,2023-12-08
111,kashira,54.8444,38.1669,-19.15,100,100,3.18,RU,2023-12-08
112,san fernando de monte cristi,19.8667,-71.65,25.7,77,51,7.78,DO,2023-12-08
113,polyarnyy,69.1989,33.4478,-14.98,96,70,6.87,RU,2023-12-08
114,gereida,11.2811,25.1414,21.29,18,81,3.57,SD,2023-12-08
115,suva,-18.1416,178.4415,29.71,70,75,3.6,FJ,2023-12-08
116,isafjordur,66.0755,-23.124,-2.19,78,92,4.03,IS,2023-12-08
117,talnakh,69.4865,88.3972,-33.42,86,23,1.54,RU,2023-12-08
118,barbastro,42.0356,0.1269,7.3,89,100,1.09,ES,2023-12-08
119,kailua-kona,19.6406,-155.9956,28.06,65,40,6.69,US,2023-12-08
120,tulun,54.5611,100.5792,-34.17,100,50,1.07,RU,2023-12-08
121,biankouma,7.7391,-7.6138,22.42,57,37,1.19,CI,2023-12-08
122,angra do heroismo,38.65,-27.2167,19.51,96,75,4.02,PT,2023-12-08
123,sola,-13.8833,167.55,27.15,79,90,6.74,VU,2023-12-08
124,tabou,4.423,-7.3528,26.67,79,30,3.4,CI,2023-12-08
125,sitka,57.0531,-135.33,3.94,87,100,0.0,US,2023-12-08
126,nuuk,64.1835,-51.7216,2.34,55,95,1.54,GL,2023-12-08
127,ocean shores,46.9737,-124.1563,9.0,83,75,6.17,US,2023-12-08
128,pangody,65.85,74.4859,-18.21,96,100,6.17,RU,2023-12-08
129,pallippatti,11.9333,78.4167,21.53,96,80,1.3,IN,2023-12-08
130,keflavik,64.0049,-22.5624,1.24,60,0,5.66,IS,2023-12-08
131,turtas,58.9417,69.1325,-29.6,90,24,1.98,RU,2023-12-08
132,san luis de la loma,17.2706,-100.8939,26.39,78,76,0.79,MX,2023-12-08
133,kuanda,56.3161,116.0806,-29.73,98,100,1.36,RU,2023-12-08
134,swift current,50.2834,-107.8014,0.45,100,100,8.75,CA,2023-12-08
135,suntar,62.1444,117.6319,-49.86,100,83,0.45,RU,2023-12-08
136,salavan,15.7167,106.4167,20.27,86,13,0.85,LA,2023-12-08
137,puerto baquerizo moreno,-0.9,-89.6,24.12,88,83,4.93,EC,2023-12-08
138,aldinga beach,-35.2793,138.4604,30.35,43,90,7.5,AU,2023-12-08
139,walvis bay,-22.9575,14.5053,16.16,86,12,4.22,NA,2023-12-08
140,queenstown,-31.8976,26.8753,15.71,74,45,1.27,ZA,2023-12-08
141,grand falls-windsor,48.9332,-55.6649,-4.72,77,99,2.68,CA,2023-12-08
142,new norfolk,-42.7826,147.0587,21.72,21,98,1.06,AU,2023-12-08
143,waajid,3.8096,43.2463,24.57,50,39,4.31,SO,2023-12-08
144,al bawiti,28.3492,28.8659,13.54,50,58,1.0,EG,2023-12-08
145,achinsk,56.2694,90.4993,-23.23,100,100,0.89,RU,2023-12-08
146,luwingu,-10.2621,29.9271,17.34,95,55,1.43,ZM,2023-12-08
147,udachny,66.4167,112.4,-27.08,99,100,1.4,RU,2023-12-08
148,qaqortoq,60.7167,-46.0333,2.32,61,100,6.53,GL,2023-12-08
149,praia da vitoria,38.7333,-27.0667,19.31,94,75,9.91,PT,2023-12-08
150,shaydon,40.6747,70.346,6.67,41,100,1.9,TJ,2023-12-08
151,corner brook,48.9667,-57.9484,-4.91,91,99,5.46,CA,2023-12-08
152,nakhon si thammarat,8.25,100.0,25.0,92,100,0.59,TH,2023-12-08
153,south hedland,-20.4089,118.5983,29.96,74,11,0.51,AU,2023-12-08
154,holualoa,19.6228,-155.9522,25.99,65,40,6.69,US,2023-12-08
155,sinabang,2.4803,96.3801,26.31,83,100,0.31,ID,2023-12-08
156,cabo san lucas,22.8909,-109.9124,27.64,50,0,4.12,MX,2023-12-08
157,arraial do cabo,-22.9661,-42.0278,27.92,65,0,7.72,BR,2023-12-08
158,arauco,-37.2463,-73.3175,15.18,72,3,5.22,CL,2023-12-08
159,albany,42.6001,-73.9662,-1.7,88,87,0.48,US,2023-12-08
160,st ives,50.2086,-5.4875,11.0,86,22,11.06,GB,2023-12-08
161,anadyr,64.75,177.4833,-20.72,84,20,13.0,RU,2023-12-08
162,quatre cocos,-20.2078,57.7625,25.06,82,64,2.33,MU,2023-12-08
163,karratha,-20.7377,116.8463,33.76,22,4,7.96,AU,2023-12-08
164,koesan,36.8108,127.7947,2.55,73,0,2.39,KR,2023-12-08
165,tanumah,27.1,44.1333,17.99,28,0,3.44,SA,2023-12-08
166,codrington,-38.2667,141.9667,33.23,28,98,9.99,AU,2023-12-08
167,barcelos,41.5388,-8.6151,15.08,86,82,6.16,PT,2023-12-08
168,khmilnyk,49.5598,27.9575,-4.59,97,100,2.6,UA,2023-12-08
169,airuk,7.2772,168.8203,27.99,83,41,8.88,MH,2023-12-08
170,vilyuysk,63.7553,121.6247,-45.56,100,91,1.34,RU,2023-12-08
171,brookings,44.3114,-96.7984,9.0,63,0,7.2,US,2023-12-08
172,glace bay,46.1969,-59.957,-1.13,71,100,8.23,CA,2023-12-08
173,santa terezinha,-29.9002,-50.0904,21.76,92,100,6.77,BR,2023-12-08
174,anna regina,7.2644,-58.5077,26.83,82,35,4.41,GY,2023-12-08
175,nuku'alofa,-21.1333,-175.2,39.19,42,40,3.6,TO,2023-12-08
176,launceston,-41.45,147.1667,22.8,49,40,6.69,AU,2023-12-08
177,beni saf,35.301,-1.3823,17.16,88,99,5.14,DZ,2023-12-08
178,tezu,27.9167,96.1667,16.49,89,100,0.29,IN,2023-12-08
179,kodiak,57.79,-152.4072,-1.27,43,0,5.14,US,2023-12-08
180,thunder bay,48.4001,-89.3168,1.99,93,75,2.57,CA,2023-12-08
181,burutu,5.3509,5.5076,26.21,84,99,2.62,NG,2023-12-08
182,yaren,-0.5472,166.916,26.02,89,100,5.51,NR,2023-12-08
183,castillos,-34.1667,-53.8333,15.62,81,20,5.34,UY,2023-12-08
184,crane,31.3974,-102.3501,19.39,28,1,2.99,US,2023-12-08
185,hasaki,35.7333,140.8333,12.94,38,0,2.15,JP,2023-12-08
186,maragogi,-9.0122,-35.2225,25.54,81,89,3.6,BR,2023-12-08
187,newman,37.3138,-121.0208,17.79,37,56,1.34,US,2023-12-08
188,homer,59.6425,-151.5483,-2.07,80,100,4.12,US,2023-12-08
189,kidal,18.4411,1.4078,22.32,14,43,1.83,ML,2023-12-08
190,fort bragg,35.139,-79.006,9.34,56,0,2.06,US,2023-12-08
191,mar del plata,-38.0023,-57.5575,15.61,81,0,3.09,AR,2023-12-08
192,kontiolahti,62.7602,29.8471,-12.03,90,20,2.57,FI,2023-12-08
193,mount pearl,47.5166,-52.7813,-2.25,86,75,11.83,CA,2023-12-08
194,kerikeri,-35.2268,173.9474,24.39,63,8,2.24,NZ,2023-12-08
195,porto novo,6.4965,2.6036,28.9,83,100,3.0,BJ,2023-12-08
196,chiras,35.4167,65.9823,-0.71,35,100,0.82,AF,2023-12-08
197,tera,14.0078,0.7531,23.92,13,80,3.77,NE,2023-12-08
198,bargarh,21.3333,83.6167,18.97,91,92,1.55,IN,2023-12-08
199,bichura,50.5881,107.6022,-20.89,81,100,4.52,RU,2023-12-08
200,utrik,11.2278,169.8474,27.51,78,50,10.55,MH,2023-12-08
201,merizo village,13.2658,144.6691,29.99,78,100,8.3,GU,2023-12-08
202,kerema,-7.9631,145.7785,28.27,72,63,1.83,PG,2023-12-08
203,striano,40.8159,14.5765,10.01,92,2,1.55,IT,2023-12-08
204,bereznik,62.8551,42.7072,-20.88,99,84,1.49,RU,2023-12-08
205,loango,-4.6719,11.8312,26.07,82,76,2.73,CG,2023-12-08
206,nagqu,31.5,92.0,-8.61,93,100,0.45,CN,2023-12-08
207,puerto el triunfo,13.2833,-88.55,27.3,71,1,1.25,SV,2023-12-08
208,rongelap,11.1635,166.8941,27.45,83,11,9.47,MH,2023-12-08
209,purpe,64.4803,76.6897,-22.14,97,100,6.82,RU,2023-12-08
210,slave lake,55.2834,-114.769,-3.01,86,0,3.09,CA,2023-12-08
211,paita,-5.0892,-81.1144,21.19,82,37,6.49,PE,2023-12-08
212,ghat,24.9647,10.1728,14.91,34,0,2.88,LY,2023-12-08
213,varna,43.2167,27.9167,5.16,86,100,4.12,BG,2023-12-08
214,nehe,48.4833,124.8333,-11.69,95,100,3.54,CN,2023-12-08
215,ust-nera,64.5667,143.2,-32.0,95,100,2.12,RU,2023-12-08
216,coruripe,-10.1256,-36.1756,25.8,79,71,4.74,BR,2023-12-08
217,hadibu,12.65,54.0333,24.62,70,68,4.98,YE,2023-12-08
218,poronaysk,49.2167,143.1167,-1.3,70,100,6.61,RU,2023-12-08
219,lincheng,19.9078,109.6858,19.48,80,61,3.85,CN,2023-12-08
220,canutama,-6.5339,-64.3831,24.19,93,78,0.72,BR,2023-12-08
221,klaksvik,62.2266,-6.589,6.51,79,99,12.98,FO,2023-12-08
222,el bolson,-41.9667,-71.5167,17.66,64,15,1.33,AR,2023-12-08
223,tazovsky,67.4667,78.7,-27.29,96,64,5.49,RU,2023-12-08
224,nacala,-14.5428,40.6728,23.94,86,10,2.62,MZ,2023-12-08
225,gamba,-2.65,10.0,26.46,84,100,2.95,GA,2023-12-08
226,anar darah,32.7587,61.654,9.5,24,0,0.84,AF,2023-12-08
227,haiku-pauwela,20.9219,-156.3051,27.01,58,40,4.12,US,2023-12-08
228,gadzhiyevo,69.2551,33.3362,-15.74,98,79,6.65,RU,2023-12-08
229,cangas de onis,43.3284,-5.0718,9.64,89,100,2.96,ES,2023-12-08
230,amos,48.5669,-78.1162,-5.75,96,100,1.6,CA,2023-12-08
231,valparaiso,-33.0393,-71.6273,18.6,67,40,3.09,CL,2023-12-08
232,saint-francois,46.4154,3.9054,7.03,83,100,3.09,FR,2023-12-08
233,west island,-12.1568,96.8225,26.99,78,75,7.72,CC,2023-12-08
234,fang,19.9169,99.2145,20.56,99,81,0.49,TH,2023-12-08
235,vernon,50.2581,-119.2691,5.34,86,98,1.03,CA,2023-12-08
236,wuyang,31.9925,116.2472,11.87,48,17,2.88,CN,2023-12-08
237,lorengau,-2.0226,147.2712,28.34,81,95,5.01,PG,2023-12-08
238,pimentel,-6.8367,-79.9342,22.16,73,0,8.75,PE,2023-12-08
239,flying fish cove,-10.4217,105.6791,26.82,78,75,3.09,CX,2023-12-08
240,yokadouma,3.5167,15.05,21.25,96,70,0.25,CM,2023-12-08
241,namibe,-15.1961,12.1522,22.8,78,97,2.61,AO,2023-12-08
242,ketchikan,55.3422,-131.6461,4.26,93,100,0.0,US,2023-12-08
243,tual,-5.6667,132.75,28.64,71,100,0.35,ID,2023-12-08
244,sabang,5.8933,95.3214,27.48,81,100,6.47,ID,2023-12-08
245,valdivia,-39.8142,-73.2459,20.05,81,0,1.12,CL,2023-12-08
246,kimbe,-5.5502,150.1429,28.53,80,81,1.45,PG,2023-12-08
247,port sudan,19.6175,37.2164,26.39,76,5,2.42,SD,2023-12-08
248,beira,-19.8436,34.8389,26.05,89,20,2.57,MZ,2023-12-08
249,happy valley-goose bay,53.3168,-60.3315,-3.83,68,100,7.72,CA,2023-12-08
250,labrador city,52.9463,-66.9114,-10.05,79,100,3.6,CA,2023-12-08
251,mercedes,-34.6515,-59.4307,20.44,63,0,2.57,AR,2023-12-08
252,chapaev,50.2,51.1667,-8.1,79,91,3.38,KZ,2023-12-08
253,kolokani,13.5728,-8.0339,24.19,18,4,3.98,ML,2023-12-08
254,demre,36.2537,29.9777,15.03,77,100,1.12,TR,2023-12-08
255,lijiang,26.8688,100.2207,7.3,97,100,1.06,CN,2023-12-08
256,vallenar,-28.5708,-70.7581,23.11,43,0,1.66,CL,2023-12-08
257,miquelon,47.0975,-56.3814,-1.0,64,84,12.87,PM,2023-12-08
258,san martin,-33.081,-68.4681,30.3,17,0,4.55,AR,2023-12-08
259,amahai,-3.3333,128.9167,28.79,69,100,0.44,ID,2023-12-08
260,lagos,6.5833,3.75,27.18,86,100,1.91,NG,2023-12-08
261,tamanrasset,22.785,5.5228,11.95,19,0,2.57,DZ,2023-12-08
262,palmer,42.1584,-72.3287,-0.32,80,75,0.0,US,2023-12-08
263,kegalle,7.2532,80.3454,22.81,98,78,0.66,LK,2023-12-08
264,heunghae,36.1125,129.3522,9.48,72,0,4.23,KR,2023-12-08
265,watertown,42.3709,-71.1828,-0.57,63,0,3.09,US,2023-12-08
266,howard springs,-12.497,131.047,29.99,84,98,1.18,AU,2023-12-08
267,shalya,57.2471,58.7298,-33.1,94,7,0.43,RU,2023-12-08
268,island harbour,50.724,-1.2758,9.96,94,100,1.34,GB,2023-12-08
269,heilbron,-27.2812,27.9709,16.58,84,93,5.83,ZA,2023-12-08
270,besskorbnaya,44.6447,41.311,1.95,96,100,6.26,RU,2023-12-08
271,kapren,25.4167,76.0667,16.79,66,0,0.8,IN,2023-12-08
272,umm kaddadah,13.6017,26.6876,17.78,20,51,4.52,SD,2023-12-08
273,karwar,14.8,74.1333,23.48,73,87,2.09,IN,2023-12-08
274,fengcheng,40.4536,124.0717,3.36,97,100,1.49,CN,2023-12-08
275,nicoya,10.1483,-85.452,25.67,74,2,4.53,CR,2023-12-08
276,qarazhal,48.0078,70.7903,-13.52,60,90,5.81,KZ,2023-12-08
277,gympie,-26.1898,152.665,29.92,42,22,3.85,AU,2023-12-08
278,greymouth,-42.4667,171.2,16.14,61,44,3.75,NZ,2023-12-08
279,tsiombe,-25.3,45.4833,22.11,83,61,6.72,MG,2023-12-08
280,nar'yan-mar,67.6713,53.087,-14.38,96,100,3.58,RU,2023-12-08
281,victorica,-36.2151,-65.4359,23.24,36,10,7.56,AR,2023-12-08
282,tateyama,34.9833,139.8667,14.5,49,0,3.29,JP,2023-12-08
283,kharkhorin,47.1975,102.8238,-15.89,86,4,1.68,MN,2023-12-08
284,punta cardon,11.6581,-70.215,26.75,79,78,10.61,VE,2023-12-08
285,ulladulla,-35.35,150.4667,30.43,45,68,3.34,AU,2023-12-08
286,kenai,60.5544,-151.2583,-5.48,90,100,5.14,US,2023-12-08
287,kittila,67.6647,24.8936,-10.92,85,100,6.69,FI,2023-12-08
288,anan,33.9167,134.65,6.88,52,0,1.94,JP,2023-12-08
289,bangar,16.8936,120.4243,27.64,69,35,0.71,PH,2023-12-08
290,belabo,4.9333,13.3,21.67,94,95,0.96,CM,2023-12-08
291,santa cruz,-17.8,-63.1667,29.7,62,40,4.12,BO,2023-12-08
292,haffouz,35.6324,9.6762,8.57,74,1,1.86,TN,2023-12-08
293,huarmey,-10.0681,-78.1522,21.05,84,41,4.1,PE,2023-12-08
294,tazacorte,28.629,-17.9293,19.54,75,75,4.63,ES,2023-12-08
295,longyearbyen,78.2186,15.6401,-1.09,69,40,9.26,SJ,2023-12-08
296,camana,-16.6228,-72.7111,20.18,76,65,3.12,PE,2023-12-08
297,kapa'a,22.0752,-159.319,27.18,69,0,4.12,US,2023-12-08
298,korla,41.7597,86.1469,1.43,56,92,4.68,CN,2023-12-08
299,beaufort west,-32.3567,22.583,19.68,33,0,0.88,ZA,2023-12-08
300,akrehamn,59.2667,5.1833,2.45,64,45,5.66,NO,2023-12-08
301,nova vicosa,-17.8919,-39.3719,24.69,86,3,4.51,BR,2023-12-08
302,iskateley,67.6803,53.1512,-14.43,96,100,3.58,RU,2023-12-08
303,avarua,-21.2078,-159.775,27.03,65,100,6.69,CK,2023-12-08
304,fayroz koh,34.5195,65.2509,1.59,30,68,1.81,AF,2023-12-08
305,zeya,53.75,127.2667,-25.84,100,100,1.05,RU,2023-12-08
306,santa vitoria do palmar,-33.5189,-53.3681,16.15,78,27,5.34,BR,2023-12-08
307,jalai nur,49.45,117.7,-18.09,76,100,8.03,CN,2023-12-08
308,port de pollenca,39.9075,3.0814,17.02,80,99,5.9,ES,2023-12-08
309,great falls,47.5002,-111.3008,4.82,73,100,2.06,US,2023-12-08
310,east london,-33.0153,27.9116,21.3,88,24,3.22,ZA,2023-12-08
311,revelstoke,50.9832,-118.2023,1.01,93,100,2.57,CA,2023-12-08
312,amurzet,47.6967,131.0981,-13.87,92,100,2.81,RU,2023-12-08
313,tosontsengel,48.7567,98.2839,-28.21,99,75,0.46,MN,2023-12-08
314,nouadhibou,20.931,-17.0347,21.99,60,53,5.66,MR,2023-12-08
315,remire-montjoly,4.9167,-52.2667,27.02,94,40,1.54,GF,2023-12-08
316,pandan,14.0453,124.1694,28.09,71,98,2.59,PH,2023-12-08
317,morrope,-6.5417,-80.0111,22.06,73,56,6.77,PE,2023-12-08
318,la'ie,21.6477,-157.9253,28.58,61,16,0.89,US,2023-12-08
319,belmonte,-15.8631,-38.8828,24.72,87,5,3.66,BR,2023-12-08
320,venancio aires,-29.6064,-52.1919,23.79,94,73,1.51,BR,2023-12-08
321,margate,51.3813,1.3862,9.39,95,100,4.47,GB,2023-12-08
322,fale old settlement,-9.3852,-171.2468,28.38,77,100,3.59,TK,2023-12-08
323,onega,63.9061,38.1404,-22.0,99,50,2.19,RU,2023-12-08
324,lazaro cardenas,17.9583,-102.2,26.6,74,17,1.23,MX,2023-12-08
325,mukalla,14.5425,49.1242,22.83,71,7,2.25,YE,2023-12-08
326,naze,28.3667,129.4833,16.51,62,0,1.06,JP,2023-12-08
327,ola,59.5833,151.2833,-7.14,85,100,7.63,RU,2023-12-08
328,qaisumah,28.3112,46.1273,13.98,51,0,1.54,SA,2023-12-08
329,banda aceh,5.5577,95.3222,25.85,83,100,3.0,ID,2023-12-08
330,whitby,54.4877,-0.615,5.64,91,100,1.79,GB,2023-12-08
331,lavra,41.2594,-8.7185,13.56,95,63,8.62,PT,2023-12-08
332,tolanaro,-25.0319,46.9987,23.04,88,40,5.14,MG,2023-12-08
333,beinamar,8.6698,15.3813,23.96,22,45,1.65,TD,2023-12-08
334,meulaboh,4.1363,96.1285,24.66,89,100,1.55,ID,2023-12-08
335,khammam,17.25,80.15,19.31,91,16,2.61,IN,2023-12-08
336,kavieng,-2.5744,150.7967,27.91,78,90,3.05,PG,2023-12-08
337,acapulco de juarez,16.8634,-99.8901,28.9,79,75,3.09,MX,2023-12-08
338,bridgewater,44.3835,-64.5155,-2.18,87,61,5.66,CA,2023-12-08
339,marsh harbour,26.5412,-77.0636,21.68,54,100,4.36,BS,2023-12-08
340,port saint john's,-31.6229,29.5448,20.26,73,8,2.5,ZA,2023-12-08
341,broome,42.2506,-75.833,2.16,91,100,2.06,US,2023-12-08
342,upper sandusky,40.8273,-83.2813,6.55,75,18,3.58,US,2023-12-08
343,lydenburg,-25.0978,30.4597,13.46,96,8,0.94,ZA,2023-12-08
344,rio grande,-32.035,-52.0986,19.06,76,38,8.28,BR,2023-12-08
345,sumbe,-11.2061,13.8437,25.63,91,100,3.0,AO,2023-12-08
346,thulamahashi,-24.7246,31.1994,22.28,95,56,0.98,ZA,2023-12-08
347,jonquiere,48.4165,-71.2488,-10.94,97,55,0.95,CA,2023-12-08
348,chonchi,-42.6128,-73.8092,13.95,89,0,1.17,CL,2023-12-08
349,farafangana,-22.8167,47.8333,23.0,87,100,0.82,MG,2023-12-08
350,davlekanovo,54.2215,55.0343,-27.05,99,41,1.04,RU,2023-12-08
351,la rinconada,37.4873,-5.9826,15.18,95,75,2.06,ES,2023-12-08
352,debre sina,9.85,39.7667,9.2,68,67,0.34,ET,2023-12-08
353,rawlins,41.7911,-107.2387,0.94,51,0,12.35,US,2023-12-08
354,mount pleasant,32.7941,-79.8626,11.1,80,0,1.54,US,2023-12-08
355,nan,18.8333,100.6667,21.01,100,40,0.51,TH,2023-12-08
356,san antonio de pale,-1.4014,5.6325,26.19,82,100,2.74,GQ,2023-12-08
357,nova sintra,14.8667,-24.7167,22.12,67,5,3.33,CV,2023-12-08
358,inarajan village,13.2736,144.7484,30.22,78,100,8.37,GU,2023-12-08
359,chegdomyn,51.1167,133.0167,-18.33,90,99,0.48,RU,2023-12-08
360,kirensk,57.7853,108.1119,-44.46,100,92,0.89,RU,2023-12-08
361,lodwar,3.1191,35.5973,27.43,41,5,2.49,KE,2023-12-08
362,dudinka,69.4058,86.1778,-27.96,91,9,4.92,RU,2023-12-08
363,najran,17.4924,44.1277,12.36,46,5,1.08,SA,2023-12-08
364,ishim,56.1128,69.4902,-34.42,98,7,2.68,RU,2023-12-08
365,martapura,-3.4167,114.85,26.05,89,20,2.57,ID,2023-12-08
366,milagros,12.2181,123.5095,28.59,67,23,2.89,PH,2023-12-08
367,ta`u,-14.2336,-169.5144,27.32,82,96,5.25,AS,2023-12-08
368,nanakuli,21.3906,-158.1547,28.58,57,0,4.12,US,2023-12-08
369,kyzyl,51.7,94.45,-19.99,81,99,0.89,RU,2023-12-08
370,nizhnesortymskiy,62.4397,71.7603,-26.21,93,100,5.37,RU,2023-12-08
371,fort mcmurray,56.7268,-111.381,-3.23,80,0,3.09,CA,2023-12-08
372,whitecourt,54.1502,-115.6855,-2.42,74,75,2.06,CA,2023-12-08
373,jianguang,28.1938,115.7836,14.98,46,0,1.38,CN,2023-12-08
374,bechar,31.6167,-2.2167,14.18,41,0,1.54,DZ,2023-12-08
375,yarega,63.4354,53.5765,-30.69,100,87,1.34,RU,2023-12-08
376,melchor de mencos,17.0686,-89.1522,21.23,98,96,1.33,GT,2023-12-08
377,fisterra,42.9049,-9.2629,12.79,72,0,10.54,ES,2023-12-08
378,nago,26.5881,127.9761,19.24,59,0,3.68,JP,2023-12-08
379,huetamo de nunez,18.5833,-100.8833,26.5,54,11,0.54,MX,2023-12-08
380,hinesville,31.8469,-81.5959,11.59,51,0,0.0,US,2023-12-08
381,priozersk,61.0393,30.1291,-11.62,76,99,3.57,RU,2023-12-08
382,fiambala,-27.6871,-67.6149,21.55,55,8,2.59,AR,2023-12-08
383,stony plain,53.5334,-114.0021,-1.38,76,0,3.09,CA,2023-12-08
384,mbanza-ngungu,-5.25,14.8667,19.72,96,100,0.82,CD,2023-12-08
385,inirida,3.8653,-67.9239,23.72,97,100,0.96,CO,2023-12-08
386,st. john's,47.5649,-52.7093,-1.68,86,75,11.83,CA,2023-12-08
387,gharavuti,37.5672,68.4469,5.36,33,100,0.33,TJ,2023-12-08
388,sisimiut,66.9395,-53.6735,-5.11,73,100,2.75,GL,2023-12-08
389,mezhdurechenskiy,59.6,65.9333,-31.51,91,91,1.88,RU,2023-12-08
390,mangai,-4.05,19.5333,19.65,100,97,0.64,CD,2023-12-08
391,mejit,10.2753,170.8646,27.65,81,91,11.05,MH,2023-12-08
392,nishinoomote,30.7333,131.0,15.31,54,20,1.54,JP,2023-12-08
393,daru,-9.0763,143.2092,29.63,64,81,3.69,PG,2023-12-08
394,cumberland,35.0502,-78.8664,9.71,56,0,2.06,US,2023-12-08
395,xilin hot,43.9667,116.0333,-9.95,93,100,6.27,CN,2023-12-08
396,kimry,56.8667,37.35,-22.67,100,65,1.34,RU,2023-12-08
397,luena,-11.7833,19.9167,19.1,88,0,2.06,AO,2023-12-08
398,mulanje,-16.0316,35.5,19.65,86,5,0.43,MW,2023-12-08
399,karatau,43.1667,70.4667,-2.7,51,100,1.23,KZ,2023-12-08
400,urzhar,47.093,81.6294,-7.47,68,100,1.16,KZ,2023-12-08
401,pemba,-12.974,40.5178,27.39,94,75,4.63,MZ,2023-12-08
402,urucurituba,-2.6833,-57.6667,26.67,78,93,0.58,BR,2023-12-08
403,portland,45.5234,-122.6762,8.97,91,75,3.6,US,2023-12-08
404,tsengel,49.4783,100.8894,-17.04,63,19,5.24,MN,2023-12-08
405,makarov,48.6333,142.8,-1.65,73,100,9.08,RU,2023-12-08
406,mount gambier,-37.8333,140.7667,30.11,34,17,6.7,AU,2023-12-08
407,francisco sa,-16.4758,-43.4883,27.08,39,5,2.4,BR,2023-12-08
408,chimoio,-19.1164,33.4833,19.92,94,75,1.27,MZ,2023-12-08
409,villa gesell,-37.2639,-56.973,14.47,69,0,5.5,AR,2023-12-08
410,rio preto da eva,-2.6994,-59.6997,24.13,94,100,1.37,BR,2023-12-08
411,oyem,1.5995,11.5793,19.44,99,86,0.73,GA,2023-12-08
412,bandon,51.7469,-8.7425,8.77,87,99,8.98,IE,2023-12-08
413,mushie,-3.0167,16.9,20.83,98,72,0.66,CD,2023-12-08
414,mount isa,-20.7333,139.5,33.87,24,0,2.57,AU,2023-12-08
415,gubkinskiy,64.434,76.5026,-21.5,97,100,6.94,RU,2023-12-08
416,lhasa,29.65,91.1,0.01,95,100,0.94,CN,2023-12-08
417,saldanha,-33.0117,17.9442,16.76,92,0,3.64,ZA,2023-12-08
418,treasure island,27.7692,-82.769,18.43,73,0,2.57,US,2023-12-08
419,lajeado,-29.4669,-51.9614,23.88,91,99,3.21,BR,2023-12-08
420,richards bay,-28.783,32.0377,21.34,93,28,6.11,ZA,2023-12-08
421,plattsmouth,41.0114,-95.8822,13.94,69,0,4.12,US,2023-12-08
422,bac lieu,9.285,105.7244,26.87,80,100,6.16,VN,2023-12-08
423,hailar,49.2,119.7,-17.48,94,100,5.58,CN,2023-12-08
424,cosala,24.4125,-106.6908,21.15,53,3,0.47,MX,2023-12-08
425,kourou,5.1552,-52.6478,27.03,92,20,3.71,GF,2023-12-08
426,nahiyat ash shinafiyah,31.5874,44.6602,17.72,35,79,2.69,IQ,2023-12-08
427,tangalle,6.024,80.7911,24.09,90,18,0.93,LK,2023-12-08
428,bodo,67.28,14.405,-2.98,63,75,12.35,NO,2023-12-08
429,bei'an,24.5399,109.533,17.04,51,6,1.04,CN,2023-12-08
430,itoman,26.1247,127.6694,20.01,64,20,3.6,JP,2023-12-08
431,palikir - national government center,6.9248,158.1611,26.47,89,100,2.57,FM,2023-12-08
432,poxoreo,-15.8372,-54.3892,24.56,63,16,0.62,BR,2023-12-08
433,quellon,-43.1167,-73.6167,10.33,88,0,3.38,CL,2023-12-08
434,alindao,5.0267,21.2088,22.54,92,100,1.44,CF,2023-12-08
435,colonia,50.9333,6.95,3.82,76,0,5.66,DE,2023-12-08
436,isangel,-19.55,169.2667,29.06,58,75,5.14,VU,2023-12-08
437,howrah,22.5892,88.3103,19.0,88,75,3.6,IN,2023-12-08
438,vila velha,-20.3297,-40.2925,26.97,83,0,8.23,BR,2023-12-08
439,guerrero negro,27.9769,-114.0611,18.6,72,0,8.26,MX,2023-12-08
440,sungailiat,-1.85,106.1333,28.44,76,77,2.92,ID,2023-12-08
441,ancud,-41.8697,-73.8203,10.53,84,0,1.52,CL,2023-12-08
442,tymovskoye,50.8456,142.655,-3.04,94,100,3.06,RU,2023-12-08
443,aykhal,66.0,111.5,-27.86,100,100,2.15,RU,2023-12-08
444,nizhneangarsk,55.7833,109.55,-27.22,88,52,4.02,RU,2023-12-08
445,gobabis,-22.45,18.9667,25.5,14,42,6.11,NA,2023-12-08
446,cambria,35.5641,-121.0808,17.41,78,0,3.58,US,2023-12-08
447,ntungamo,-0.8833,29.65,16.88,98,20,1.39,UG,2023-12-08
448,dondo,-19.6094,34.7431,25.73,92,0,1.93,MZ,2023-12-08
449,chibougamau,49.9168,-74.3659,-21.21,77,0,0.0,CA,2023-12-08
450,kokopo,-4.352,152.2633,29.25,70,54,4.53,PG,2023-12-08
451,banamba,13.55,-7.45,22.51,20,0,3.96,ML,2023-12-08
452,pariaman,-0.619,100.12,24.03,80,79,0.63,ID,2023-12-08
453,senador jose porfirio,-2.5908,-51.9542,24.86,90,100,2.35,BR,2023-12-08
454,la passe,45.5549,-0.8967,12.13,93,100,4.23,FR,2023-12-08
455,mundri,-6.9558,111.71,28.23,75,54,2.34,ID,2023-12-08
456,kolwezi,-10.7148,25.4667,15.56,91,15,0.72,CD,2023-12-08
457,xichang,27.8964,102.2634,9.71,90,92,0.15,CN,2023-12-08
458,mana,5.6592,-53.7767,25.8,89,50,4.26,GF,2023-12-08
459,clarinda,40.7419,-95.0383,13.18,81,0,2.06,US,2023-12-08
460,gaigeturi,33.4644,126.3183,13.03,50,0,3.09,KR,2023-12-08
461,christchurch,-43.5333,172.6333,22.52,55,40,5.14,NZ,2023-12-08
462,hays,30.0502,-98.0336,20.23,72,100,1.79,US,2023-12-08
463,santana,-0.0583,-51.1817,29.1,79,40,2.57,BR,2023-12-08
464,batang,-6.4846,110.7083,28.75,73,32,3.1,ID,2023-12-08
465,cockburn town,21.4612,-71.1419,24.98,61,40,4.63,TC,2023-12-08
466,salym,60.0625,71.4789,-26.77,88,100,2.56,RU,2023-12-08
467,weno,7.4515,151.8468,27.97,83,100,5.14,FM,2023-12-08
468,kidatu,-7.6992,36.9572,22.56,96,78,0.57,TZ,2023-12-08
469,kurumkan,54.3,110.3,-22.15,93,30,1.79,RU,2023-12-08
470,pizzo,38.7384,16.1658,7.97,87,36,2.57,IT,2023-12-08
471,kaa-khem,51.6833,94.7333,-20.33,83,99,2.03,RU,2023-12-08
472,laguna,38.421,-121.4238,13.36,92,100,2.06,US,2023-12-08
473,awjilah,29.1081,21.2869,15.28,31,1,4.35,LY,2023-12-08
474,whangarei,-35.7317,174.3239,22.12,40,0,3.87,NZ,2023-12-08
475,kani keli,-12.9536,45.1033,27.59,81,40,3.35,YT,2023-12-08
476,santiago de cao,-7.9589,-79.2392,20.07,83,75,5.14,PE,2023-12-08
477,piacabucu,-10.4056,-36.4344,25.71,80,64,4.27,BR,2023-12-08
478,manakara,-22.1333,48.0167,21.99,89,48,0.79,MG,2023-12-08
479,puerto gaitan,4.3133,-72.0816,28.44,55,75,2.73,CO,2023-12-08
480,tobruk,32.0836,23.9764,17.18,59,99,4.25,LY,2023-12-08
481,tai'an,36.1853,117.12,10.34,58,0,1.8,CN,2023-12-08
482,north bend,43.4065,-124.2243,8.98,87,100,2.06,US,2023-12-08
483,labytnangi,66.6572,66.4183,-22.52,87,99,3.62,RU,2023-12-08
484,armavir,44.9892,41.1234,2.52,95,100,7.0,RU,2023-12-08
485,afif,23.9065,42.9172,17.08,25,0,4.72,SA,2023-12-08
486,danville,36.586,-79.395,8.9,52,0,2.06,US,2023-12-08
487,lander,42.833,-108.7307,4.45,30,0,1.54,US,2023-12-08
488,mildura,-34.2,142.15,40.13,15,95,13.29,AU,2023-12-08
489,misratah,32.3754,15.0925,18.0,62,83,8.19,LY,2023-12-08
490,buta,2.7858,24.73,21.07,98,100,0.11,CD,2023-12-08
491,nguigmi,14.2495,13.1092,21.07,26,99,4.42,NE,2023-12-08
492,minas de marcona,-15.2119,-75.1103,15.4,79,27,5.26,PE,2023-12-08
493,targuist,34.9377,-4.3186,11.34,85,100,4.51,MA,2023-12-08
494,yeniseysk,58.4497,92.1703,-32.25,98,80,0.45,RU,2023-12-08
495,papao,-17.75,-149.55,24.82,80,100,8.96,PF,2023-12-08
496,san fernando de apure,7.8878,-67.4724,26.48,74,100,1.21,VE,2023-12-08
497,northam,51.0333,-4.2167,9.78,94,22,8.23,GB,2023-12-08
498,al bayda',32.7627,21.7551,11.2,85,78,4.12,LY,2023-12-08
499,lazarevskoye,43.9061,39.3331,13.19,81,100,1.21,RU,2023-12-08
500,wenchang,30.904,118.4887,14.36,45,94,2.51,CN,2023-12-08
501,eureka,40.8021,-124.1637,10.67,88,35,2.24,US,2023-12-08
502,alofi,-19.0595,-169.9187,29.94,70,75,5.14,NU,2023-12-08
503,barah,13.7,30.3667,18.64,27,9,4.46,SD,2023-12-08
504,carnarvon,-24.8667,113.6333,23.05,59,0,9.91,AU,2023-12-08
505,abomsa,9.9833,39.9833,18.05,49,8,1.84,ET,2023-12-08
506,flin flon,54.7682,-101.865,-3.09,93,100,1.03,CA,2023-12-08
507,witu,-2.3889,40.4382,27.09,92,70,1.86,KE,2023-12-08
508,chamical,-30.36,-66.314,26.31,36,0,7.1,AR,2023-12-08
509,nchelenge,-9.3451,28.734,21.16,88,70,1.66,ZM,2023-12-08
510,alaghsas,17.0187,8.0168,20.04,18,96,3.23,NE,2023-12-08
511,yerofey pavlovich,53.9667,121.9667,-24.24,91,100,1.0,RU,2023-12-08
512,tralee,52.2704,-9.7026,9.53,84,100,7.97,IE,2023-12-08
513,berezovyy,51.6667,135.7,-12.87,60,2,1.62,RU,2023-12-08
514,terme,41.2092,36.9739,6.96,69,100,1.96,TR,2023-12-08
515,camara de lobos,32.6333,-16.9667,19.28,85,20,1.79,PT,2023-12-08
516,usinsk,65.9939,57.5281,-19.96,99,100,3.13,RU,2023-12-08
517,aswan,24.0934,32.907,17.61,42,0,2.57,EG,2023-12-08
518,upington,-28.4478,21.2561,18.94,46,0,4.54,ZA,2023-12-08
519,sierra grande,-41.606,-65.3557,12.53,68,51,6.41,AR,2023-12-08
520,quibdo,5.6947,-76.6611,25.19,100,100,2.57,CO,2023-12-08
521,kapit,2.0167,112.9333,26.08,88,84,0.67,MY,2023-12-08
522,steamboat springs,40.485,-106.8317,3.3,91,100,4.12,US,2023-12-08
523,khandyga,62.6667,135.6,-28.65,95,100,2.1,RU,2023-12-08
524,berezovo,63.9381,65.0419,-27.04,96,100,1.76,RU,2023-12-08
525,pulaski,34.7668,-92.3001,14.06,54,75,4.63,US,2023-12-08
526,muang xay,20.7,101.9833,20.57,85,95,0.35,LA,2023-12-08
527,saint-joseph,-21.3667,55.6167,23.21,85,39,3.62,RE,2023-12-08
528,vytegra,61.0064,36.4481,-16.47,98,74,1.79,RU,2023-12-08
529,ust'-ilimsk,58.0006,102.6619,-36.54,91,34,1.79,RU,2023-12-08
530,oriximina,-1.7656,-55.8661,24.65,92,98,1.93,BR,2023-12-08
531,at taj,24.2049,23.2857,14.46,29,0,3.54,LY,2023-12-08
532,sao gabriel da cachoeira,-0.1303,-67.0892,23.03,99,97,0.91,BR,2023-12-08
533,nikolayevsk-on-amure,53.1406,140.73,-8.57,75,100,3.93,RU,2023-12-08
534,oranjemund,-28.55,16.4333,15.58,96,11,2.09,NA,2023-12-08
535,macgregor,49.9661,-98.7794,4.84,85,100,3.58,CA,2023-12-08
536,strezhevoy,60.7333,77.5889,-25.02,85,100,2.68,RU,2023-12-08
537,yuci,37.6803,112.7319,1.86,48,0,3.0,CN,2023-12-08
538,saint-philippe,-21.3585,55.7679,23.77,86,60,3.57,RE,2023-12-08
539,colares,38.7992,-9.4469,16.29,96,0,11.18,PT,2023-12-08
540,pacasmayo,-7.4006,-79.5714,20.97,81,32,5.44,PE,2023-12-08
541,fenoarivo be,-18.4333,46.5667,18.85,80,42,1.33,MG,2023-12-08
542,ain sukhna,29.6002,32.3167,16.2,52,1,1.38,EG,2023-12-08
543,ostroda,53.6967,19.9649,-5.78,93,25,2.8,PL,2023-12-08
544,shortandy,51.7006,70.9994,-27.16,93,6,3.55,KZ,2023-12-08
545,salinas,36.6777,-121.6555,14.99,84,100,3.6,US,2023-12-08
546,gwio kura,12.6753,11.0682,20.49,17,100,3.98,NG,2023-12-08
547,horta,38.5333,-28.6333,18.98,91,100,12.32,PT,2023-12-08
548,outjo,-20.1167,16.15,20.86,31,14,3.6,NA,2023-12-08
549,kalmunai,7.4167,81.8167,25.74,87,65,2.42,LK,2023-12-08
550,hefei,31.8639,117.2808,10.01,76,29,4.0,CN,2023-12-08
551,tabarka,36.9544,8.758,8.36,93,20,2.57,TN,2023-12-08
